{"detection":{"confidence":0,"label":"multi","objects":[{"bbox":[0.692383,0.28559,0.016602,0.045139],"confidence":0.845706,"label":"person"},{"bbox":[0.730469,0.166667,0.084961,0.217014],"confidence":0.785414,"label":"rod"},{"bbox":[0.756836,0.199653,0.084961,0.130208],"confidence":0.821786,"label":"rod"},{"bbox":[0.552334,0.782047,0.056816,0.086947],"confidence":0.881474,"label":"rod"},{"bbox":[0.588379,0.736111,0.013672,0.026042],"confidence":0.88836,"label":"person"}],"source_ts_ms":1772992123834},"frame_ts_ms":1772992124017,"frame_valid":true,"gps":{"alt_mm":15002,"cog_cdeg":240,"fix_type":3,"lat_e7":311234552,"lon_e7":1214730030,"satellites_visible":11,"time_usec":"1772992123849000","vel_cms":502},"latency_ms":168,"wall_ts_ms":1772992124021}
{"detection":{"confidence":0,"label":"multi","objects":[{"bbox":[0.692383,0.28559,0.016602,0.045139],"confidence":0.845706,"label":"person"},{"bbox":[0.730469,0.166667,0.084961,0.217014],"confidence":0.785414,"label":"rod"},{"bbox":[0.756836,0.199653,0.084961,0.130208],"confidence":0.821786,"label":"rod"},{"bbox":[0.552334,0.782047,0.056816,0.086947],"confidence":0.881474,"label":"rod"},{"bbox":[0.588379,0.736111,0.013672,0.026042],"confidence":0.88836,"label":"person"}],"source_ts_ms":1772992123834},"frame_ts_ms":1772992124619,"frame_valid":true,"gps":{"alt_mm":15002,"cog_cdeg":240,"fix_type":3,"lat_e7":311234552,"lon_e7":1214730030,"satellites_visible":11,"time_usec":"1772992123849000","vel_cms":502},"latency_ms":770,"wall_ts_ms":1772992124627}
{"detection":{"confidence":0,"label":"multi","objects":[{"bbox":[0.692383,0.28559,0.016602,0.045139],"confidence":0.845706,"label":"person"},{"bbox":[0.730469,0.166667,0.084961,0.217014],"confidence":0.785414,"label":"rod"},{"bbox":[0.756836,0.199653,0.084961,0.130208],"confidence":0.821786,"label":"rod"},{"bbox":[0.552334,0.782047,0.056816,0.086947],"confidence":0.881474,"label":"rod"},{"bbox":[0.588379,0.736111,0.013672,0.026042],"confidence":0.88836,"label":"person"}],"source_ts_ms":1772992124835},"frame_ts_ms":1772992125221,"frame_valid":true,"gps":{"alt_mm":15003,"cog_cdeg":360,"fix_type":3,"lat_e7":311234574,"lon_e7":1214730025,"satellites_visible":11,"time_usec":"1772992124850000","vel_cms":503},"latency_ms":371,"wall_ts_ms":1772992125225}
{"detection":{"confidence":0,"label":"multi","objects":[{"bbox":[0.692383,0.28559,0.016602,0.045139],"confidence":0.845706,"label":"person"},{"bbox":[0.730469,0.166667,0.084961,0.217014],"confidence":0.785414,"label":"rod"},{"bbox":[0.756836,0.199653,0.084961,0.130208],"confidence":0.821786,"label":"rod"},{"bbox":[0.552334,0.782047,0.056816,0.086947],"confidence":0.881474,"label":"rod"},{"bbox":[0.588379,0.736111,0.013672,0.026042],"confidence":0.88836,"label":"person"}],"source_ts_ms":1772992124835},"frame_ts_ms":1772992125823,"frame_valid":true,"gps":{"alt_mm":15003,"cog_cdeg":360,"fix_type":3,"lat_e7":311234574,"lon_e7":1214730025,"satellites_visible":11,"time_usec":"1772992124850000","vel_cms":503},"latency_ms":973,"wall_ts_ms":1772992125828}
{"detection":{"confidence":0,"label":"multi","objects":[{"bbox":[0.692383,0.28559,0.016602,0.045139],"confidence":0.845706,"label":"person"},{"bbox":[0.730469,0.166667,0.084961,0.217014],"confidence":0.785414,"label":"rod"},{"bbox":[0.756836,0.199653,0.084961,0.130208],"confidence":0.821786,"label":"rod"},{"bbox":[0.552334,0.782047,0.056816,0.086947],"confidence":0.881474,"label":"rod"},{"bbox":[0.588379,0.736111,0.013672,0.026042],"confidence":0.88836,"label":"person"}],"source_ts_ms":1772992125835},"frame_ts_ms":1772992126426,"frame_valid":true,"gps":{"alt_mm":15004,"cog_cdeg":480,"fix_type":3,"lat_e7":311234597,"lon_e7":1214730002,"satellites_visible":11,"time_usec":"1772992125850000","vel_cms":504},"latency_ms":576,"wall_ts_ms":1772992126429}
{"detection":{"confidence":0,"label":"multi","objects":[{"bbox":[0.692383,0.28559,0.016602,0.045139],"confidence":0.845706,"label":"person"},{"bbox":[0.730469,0.166667,0.084961,0.217014],"confidence":0.785414,"label":"rod"},{"bbox":[0.756836,0.199653,0.084961,0.130208],"confidence":0.821786,"label":"rod"},{"bbox":[0.552334,0.782047,0.056816,0.086947],"confidence":0.881474,"label":"rod"},{"bbox":[0.588379,0.736111,0.013672,0.026042],"confidence":0.88836,"label":"person"}],"source_ts_ms":1772992126835},"frame_ts_ms":1772992127027,"frame_valid":true,"gps":{"alt_mm":15005,"cog_cdeg":600,"fix_type":3,"lat_e7":311234572,"lon_e7":1214729982,"satellites_visible":11,"time_usec":"1772992126850000","vel_cms":505},"latency_ms":177,"wall_ts_ms":1772992127033}
{"detection":{"confidence":0,"label":"multi","objects":[{"bbox":[0.692383,0.28559,0.016602,0.045139],"confidence":0.845706,"label":"person"},{"bbox":[0.730469,0.166667,0.084961,0.217014],"confidence":0.785414,"label":"rod"},{"bbox":[0.756836,0.199653,0.084961,0.130208],"confidence":0.821786,"label":"rod"},{"bbox":[0.552334,0.782047,0.056816,0.086947],"confidence":0.881474,"label":"rod"},{"bbox":[0.588379,0.736111,0.013672,0.026042],"confidence":0.88836,"label":"person"}],"source_ts_ms":1772992126835},"frame_ts_ms":1772992127629,"frame_valid":true,"gps":{"alt_mm":15005,"cog_cdeg":600,"fix_type":3,"lat_e7":311234572,"lon_e7":1214729982,"satellites_visible":11,"time_usec":"1772992126850000","vel_cms":505},"latency_ms":779,"wall_ts_ms":1772992127632}
{"detection":{"confidence":0,"label":"multi","objects":[{"bbox":[0.692383,0.28559,0.016602,0.045139],"confidence":0.845706,"label":"person"},{"bbox":[0.730469,0.166667,0.084961,0.217014],"confidence":0.785414,"label":"rod"},{"bbox":[0.756836,0.199653,0.084961,0.130208],"confidence":0.821786,"label":"rod"},{"bbox":[0.552334,0.782047,0.056816,0.086947],"confidence":0.881474,"label":"rod"},{"bbox":[0.588379,0.736111,0.013672,0.026042],"confidence":0.88836,"label":"person"}],"source_ts_ms":1772992127835},"frame_ts_ms":1772992128231,"frame_valid":true,"gps":{"alt_mm":15006,"cog_cdeg":720,"fix_type":3,"lat_e7":311234562,"lon_e7":1214729990,"satellites_visible":11,"time_usec":"1772992127850000","vel_cms":506},"latency_ms":381,"wall_ts_ms":1772992128237}
{"detection":{"confidence":0,"label":"multi","objects":[{"bbox":[0.692383,0.28559,0.016602,0.045139],"confidence":0.845706,"label":"person"},{"bbox":[0.730469,0.166667,0.084961,0.217014],"confidence":0.785414,"label":"rod"},{"bbox":[0.756836,0.199653,0.084961,0.130208],"confidence":0.821786,"label":"rod"},{"bbox":[0.552334,0.782047,0.056816,0.086947],"confidence":0.881474,"label":"rod"},{"bbox":[0.588379,0.736111,0.013672,0.026042],"confidence":0.88836,"label":"person"}],"source_ts_ms":1772992127835},"frame_ts_ms":1772992128833,"frame_valid":true,"gps":{"alt_mm":15006,"cog_cdeg":720,"fix_type":3,"lat_e7":311234562,"lon_e7":1214729990,"satellites_visible":11,"time_usec":"1772992127850000","vel_cms":506},"latency_ms":983,"wall_ts_ms":1772992128836}
{"detection":{"confidence":0,"label":"multi","objects":[{"bbox":[0.692383,0.28559,0.016602,0.045139],"confidence":0.845706,"label":"person"},{"bbox":[0.730469,0.166667,0.084961,0.217014],"confidence":0.785414,"label":"rod"},{"bbox":[0.756836,0.199653,0.084961,0.130208],"confidence":0.821786,"label":"rod"},{"bbox":[0.552334,0.782047,0.056816,0.086947],"confidence":0.881474,"label":"rod"},{"bbox":[0.588379,0.736111,0.013672,0.026042],"confidence":0.88836,"label":"person"}],"source_ts_ms":1772992128835},"frame_ts_ms":1772992129436,"frame_valid":true,"gps":{"alt_mm":15007,"cog_cdeg":840,"fix_type":3,"lat_e7":311234555,"lon_e7":1214730005,"satellites_visible":11,"time_usec":"1772992128850000","vel_cms":507},"latency_ms":586,"wall_ts_ms":1772992129443}
{"detection":{"confidence":0,"label":"multi","objects":[{"bbox":[0.692383,0.28559,0.016602,0.045139],"confidence":0.845706,"label":"person"},{"bbox":[0.730469,0.166667,0.084961,0.217014],"confidence":0.785414,"label":"rod"},{"bbox":[0.756836,0.199653,0.084961,0.130208],"confidence":0.821786,"label":"rod"},{"bbox":[0.552334,0.782047,0.056816,0.086947],"confidence":0.881474,"label":"rod"},{"bbox":[0.588379,0.736111,0.013672,0.026042],"confidence":0.88836,"label":"person"}],"source_ts_ms":1772992129835},"frame_ts_ms":1772992130038,"frame_valid":true,"gps":{"alt_mm":15008,"cog_cdeg":960,"fix_type":3,"lat_e7":311234584,"lon_e7":1214730016,"satellites_visible":11,"time_usec":"1772992129850000","vel_cms":508},"latency_ms":188,"wall_ts_ms":1772992130042}
{"detection":{"confidence":0,"label":"multi","objects":[{"bbox":[0.692383,0.28559,0.016602,0.045139],"confidence":0.845706,"label":"person"},{"bbox":[0.730469,0.166667,0.084961,0.217014],"confidence":0.785414,"label":"rod"},{"bbox":[0.756836,0.199653,0.084961,0.130208],"confidence":0.821786,"label":"rod"},{"bbox":[0.552334,0.782047,0.056816,0.086947],"confidence":0.881474,"label":"rod"},{"bbox":[0.588379,0.736111,0.013672,0.026042],"confidence":0.88836,"label":"person"}],"source_ts_ms":1772992129835},"frame_ts_ms":1772992130641,"frame_valid":true,"gps":{"alt_mm":15008,"cog_cdeg":960,"fix_type":3,"lat_e7":311234584,"lon_e7":1214730016,"satellites_visible":11,"time_usec":"1772992129850000","vel_cms":508},"latency_ms":791,"wall_ts_ms":1772992130647}
{"detection":{"confidence":0,"label":"multi","objects":[{"bbox":[0.692383,0.28559,0.016602,0.045139],"confidence":0.845706,"label":"person"},{"bbox":[0.730469,0.166667,0.084961,0.217014],"confidence":0.785414,"label":"rod"},{"bbox":[0.756836,0.199653,0.084961,0.130208],"confidence":0.821786,"label":"rod"},{"bbox":[0.552334,0.782047,0.056816,0.086947],"confidence":0.881474,"label":"rod"},{"bbox":[0.588379,0.736111,0.013672,0.026042],"confidence":0.88836,"label":"person"}],"source_ts_ms":1772992130835},"frame_ts_ms":1772992131243,"frame_valid":true,"gps":{"alt_mm":15009,"cog_cdeg":1080,"fix_type":3,"lat_e7":311234557,"lon_e7":1214729975,"satellites_visible":11,"time_usec":"1772992130850000","vel_cms":509},"latency_ms":393,"wall_ts_ms":1772992131247}
{"detection":{"confidence":0,"label":"multi","objects":[{"bbox":[0.692383,0.28559,0.016602,0.045139],"confidence":0.845706,"label":"person"},{"bbox":[0.730469,0.166667,0.084961,0.217014],"confidence":0.785414,"label":"rod"},{"bbox":[0.756836,0.199653,0.084961,0.130208],"confidence":0.821786,"label":"rod"},{"bbox":[0.552334,0.782047,0.056816,0.086947],"confidence":0.881474,"label":"rod"},{"bbox":[0.588379,0.736111,0.013672,0.026042],"confidence":0.88836,"label":"person"}],"source_ts_ms":1772992130835},"frame_ts_ms":1772992131845,"frame_valid":true,"gps":{"alt_mm":15009,"cog_cdeg":1080,"fix_type":3,"lat_e7":311234557,"lon_e7":1214729975,"satellites_visible":11,"time_usec":"1772992130850000","vel_cms":509},"latency_ms":995,"wall_ts_ms":1772992131850}
{"detection":{"confidence":0,"label":"multi","objects":[{"bbox":[0.692383,0.28559,0.016602,0.045139],"confidence":0.845706,"label":"person"},{"bbox":[0.730469,0.166667,0.084961,0.217014],"confidence":0.785414,"label":"rod"},{"bbox":[0.756836,0.199653,0.084961,0.130208],"confidence":0.821786,"label":"rod"},{"bbox":[0.552334,0.782047,0.056816,0.086947],"confidence":0.881474,"label":"rod"},{"bbox":[0.588379,0.736111,0.013672,0.026042],"confidence":0.88836,"label":"person"}],"source_ts_ms":1772992131836},"frame_ts_ms":1772992132447,"frame_valid":true,"gps":{"alt_mm":15010,"cog_cdeg":1200,"fix_type":3,"lat_e7":311234574,"lon_e7":1214729977,"satellites_visible":11,"time_usec":"1772992131851000","vel_cms":510},"latency_ms":596,"wall_ts_ms":1772992132450}
{"detection":{"confidence":0,"label":"multi","objects":[{"bbox":[0.692383,0.28559,0.016602,0.045139],"confidence":0.845706,"label":"person"},{"bbox":[0.730469,0.166667,0.084961,0.217014],"confidence":0.785414,"label":"rod"},{"bbox":[0.756836,0.199653,0.084961,0.130208],"confidence":0.821786,"label":"rod"},{"bbox":[0.552334,0.782047,0.056816,0.086947],"confidence":0.881474,"label":"rod"},{"bbox":[0.588379,0.736111,0.013672,0.026042],"confidence":0.88836,"label":"person"}],"source_ts_ms":1772992132836},"frame_ts_ms":1772992133049,"frame_valid":true,"gps":{"alt_mm":15011,"cog_cdeg":1320,"fix_type":3,"lat_e7":311234584,"lon_e7":1214730023,"satellites_visible":11,"time_usec":"1772992132851000","vel_cms":511},"latency_ms":198,"wall_ts_ms":1772992133055}
{"detection":{"confidence":0,"label":"multi","objects":[{"bbox":[0.692383,0.28559,0.016602,0.045139],"confidence":0.845706,"label":"person"},{"bbox":[0.730469,0.166667,0.084961,0.217014],"confidence":0.785414,"label":"rod"},{"bbox":[0.756836,0.199653,0.084961,0.130208],"confidence":0.821786,"label":"rod"},{"bbox":[0.552334,0.782047,0.056816,0.086947],"confidence":0.881474,"label":"rod"},{"bbox":[0.588379,0.736111,0.013672,0.026042],"confidence":0.88836,"label":"person"}],"source_ts_ms":1772992132836},"frame_ts_ms":1772992133651,"frame_valid":true,"gps":{"alt_mm":15011,"cog_cdeg":1320,"fix_type":3,"lat_e7":311234584,"lon_e7":1214730023,"satellites_visible":11,"time_usec":"1772992132851000","vel_cms":511},"latency_ms":800,"wall_ts_ms":1772992133656}
{"detection":{"confidence":0,"label":"multi","objects":[{"bbox":[0.692383,0.28559,0.016602,0.045139],"confidence":0.845706,"label":"person"},{"bbox":[0.730469,0.166667,0.084961,0.217014],"confidence":0.785414,"label":"rod"},{"bbox":[0.756836,0.199653,0.084961,0.130208],"confidence":0.821786,"label":"rod"},{"bbox":[0.552334,0.782047,0.056816,0.086947],"confidence":0.881474,"label":"rod"},{"bbox":[0.588379,0.736111,0.013672,0.026042],"confidence":0.88836,"label":"person"}],"source_ts_ms":1772992133836},"frame_ts_ms":1772992134253,"frame_valid":true,"gps":{"alt_mm":15012,"cog_cdeg":1440,"fix_type":3,"lat_e7":311234554,"lon_e7":1214730006,"satellites_visible":11,"time_usec":"1772992133851000","vel_cms":512},"latency_ms":402,"wall_ts_ms":1772992134258}
{"detection":{"confidence":0,"label":"multi","objects":[{"bbox":[0.692383,0.28559,0.016602,0.045139],"confidence":0.845706,"label":"person"},{"bbox":[0.730469,0.166667,0.084961,0.217014],"confidence":0.785414,"label":"rod"},{"bbox":[0.756836,0.199653,0.084961,0.130208],"confidence":0.821786,"label":"rod"},{"bbox":[0.552334,0.782047,0.056816,0.086947],"confidence":0.881474,"label":"rod"},{"bbox":[0.588379,0.736111,0.013672,0.026042],"confidence":0.88836,"label":"person"}],"source_ts_ms":1772992134836},"frame_ts_ms":1772992134855,"frame_valid":true,"gps":{"alt_mm":15013,"cog_cdeg":1560,"fix_type":3,"lat_e7":311234556,"lon_e7":1214729983,"satellites_visible":11,"time_usec":"1772992134851000","vel_cms":513},"latency_ms":4,"wall_ts_ms":1772992134858}
{"detection":{"confidence":0,"label":"multi","objects":[{"bbox":[0.692383,0.28559,0.016602,0.045139],"confidence":0.845706,"label":"person"},{"bbox":[0.730469,0.166667,0.084961,0.217014],"confidence":0.785414,"label":"rod"},{"bbox":[0.756836,0.199653,0.084961,0.130208],"confidence":0.821786,"label":"rod"},{"bbox":[0.552334,0.782047,0.056816,0.086947],"confidence":0.881474,"label":"rod"},{"bbox":[0.588379,0.736111,0.013672,0.026042],"confidence":0.88836,"label":"person"}],"source_ts_ms":1772992134836},"frame_ts_ms":1772992135457,"frame_valid":true,"gps":{"alt_mm":15013,"cog_cdeg":1560,"fix_type":3,"lat_e7":311234556,"lon_e7":1214729983,"satellites_visible":11,"time_usec":"1772992134851000","vel_cms":513},"latency_ms":606,"wall_ts_ms":1772992135463}
{"detection":{"confidence":0,"label":"multi","objects":[{"bbox":[0.692383,0.28559,0.016602,0.045139],"confidence":0.845706,"label":"person"},{"bbox":[0.730469,0.166667,0.084961,0.217014],"confidence":0.785414,"label":"rod"},{"bbox":[0.756836,0.199653,0.084961,0.130208],"confidence":0.821786,"label":"rod"},{"bbox":[0.552334,0.782047,0.056816,0.086947],"confidence":0.881474,"label":"rod"},{"bbox":[0.588379,0.736111,0.013672,0.026042],"confidence":0.88836,"label":"person"}],"source_ts_ms":1772992135836},"frame_ts_ms":1772992136060,"frame_valid":true,"gps":{"alt_mm":15014,"cog_cdeg":1680,"fix_type":3,"lat_e7":311234568,"lon_e7":1214729992,"satellites_visible":11,"time_usec":"1772992135851000","vel_cms":514},"latency_ms":209,"wall_ts_ms":1772992136063}
{"detection":{"confidence":0,"label":"multi","objects":[{"bbox":[0.692383,0.28559,0.016602,0.045139],"confidence":0.845706,"label":"person"},{"bbox":[0.730469,0.166667,0.084961,0.217014],"confidence":0.785414,"label":"rod"},{"bbox":[0.756836,0.199653,0.084961,0.130208],"confidence":0.821786,"label":"rod"},{"bbox":[0.552334,0.782047,0.056816,0.086947],"confidence":0.881474,"label":"rod"},{"bbox":[0.588379,0.736111,0.013672,0.026042],"confidence":0.88836,"label":"person"}],"source_ts_ms":1772992135836},"frame_ts_ms":1772992136662,"frame_valid":true,"gps":{"alt_mm":15014,"cog_cdeg":1680,"fix_type":3,"lat_e7":311234568,"lon_e7":1214729992,"satellites_visible":11,"time_usec":"1772992135851000","vel_cms":514},"latency_ms":811,"wall_ts_ms":1772992136668}
{"detection":{"confidence":0,"label":"multi","objects":[{"bbox":[0.692383,0.28559,0.016602,0.045139],"confidence":0.845706,"label":"person"},{"bbox":[0.730469,0.166667,0.084961,0.217014],"confidence":0.785414,"label":"rod"},{"bbox":[0.756836,0.199653,0.084961,0.130208],"confidence":0.821786,"label":"rod"},{"bbox":[0.552334,0.782047,0.056816,0.086947],"confidence":0.881474,"label":"rod"},{"bbox":[0.588379,0.736111,0.013672,0.026042],"confidence":0.88836,"label":"person"}],"source_ts_ms":1772992136836},"frame_ts_ms":1772992137264,"frame_valid":true,"gps":{"alt_mm":15015,"cog_cdeg":1800,"fix_type":3,"lat_e7":311234589,"lon_e7":1214730024,"satellites_visible":11,"time_usec":"1772992136851000","vel_cms":515},"latency_ms":413,"wall_ts_ms":1772992137268}
{"detection":{"confidence":0,"label":"multi","objects":[{"bbox":[0.692383,0.28559,0.016602,0.045139],"confidence":0.845706,"label":"person"},{"bbox":[0.730469,0.166667,0.084961,0.217014],"confidence":0.785414,"label":"rod"},{"bbox":[0.756836,0.199653,0.084961,0.130208],"confidence":0.821786,"label":"rod"},{"bbox":[0.552334,0.782047,0.056816,0.086947],"confidence":0.881474,"label":"rod"},{"bbox":[0.588379,0.736111,0.013672,0.026042],"confidence":0.88836,"label":"person"}],"source_ts_ms":1772992137837},"frame_ts_ms":1772992137865,"frame_valid":true,"gps":{"alt_mm":15016,"cog_cdeg":1920,"fix_type":3,"lat_e7":311234589,"lon_e7":1214730002,"satellites_visible":11,"time_usec":"1772992137852000","vel_cms":516},"latency_ms":13,"wall_ts_ms":1772992137870}
{"detection":{"confidence":0,"label":"multi","objects":[{"bbox":[0.692383,0.28559,0.016602,0.045139],"confidence":0.845706,"label":"person"},{"bbox":[0.730469,0.166667,0.084961,0.217014],"confidence":0.785414,"label":"rod"},{"bbox":[0.756836,0.199653,0.084961,0.130208],"confidence":0.821786,"label":"rod"},{"bbox":[0.552334,0.782047,0.056816,0.086947],"confidence":0.881474,"label":"rod"},{"bbox":[0.588379,0.736111,0.013672,0.026042],"confidence":0.88836,"label":"person"}],"source_ts_ms":1772992137837},"frame_ts_ms":1772992138468,"frame_valid":true,"gps":{"alt_mm":15016,"cog_cdeg":1920,"fix_type":3,"lat_e7":311234589,"lon_e7":1214730002,"satellites_visible":11,"time_usec":"1772992137852000","vel_cms":516},"latency_ms":616,"wall_ts_ms":1772992138472}
{"detection":{"confidence":0,"label":"multi","objects":[{"bbox":[0.692383,0.28559,0.016602,0.045139],"confidence":0.845706,"label":"person"},{"bbox":[0.730469,0.166667,0.084961,0.217014],"confidence":0.785414,"label":"rod"},{"bbox":[0.756836,0.199653,0.084961,0.130208],"confidence":0.821786,"label":"rod"},{"bbox":[0.552334,0.782047,0.056816,0.086947],"confidence":0.881474,"label":"rod"},{"bbox":[0.588379,0.736111,0.013672,0.026042],"confidence":0.88836,"label":"person"}],"source_ts_ms":1772992138837},"frame_ts_ms":1772992139070,"frame_valid":true,"gps":{"alt_mm":15017,"cog_cdeg":2040,"fix_type":3,"lat_e7":311234584,"lon_e7":1214729983,"satellites_visible":11,"time_usec":"1772992138852000","vel_cms":517},"latency_ms":218,"wall_ts_ms":1772992139076}
{"detection":{"confidence":0,"label":"multi","objects":[{"bbox":[0.692383,0.28559,0.016602,0.045139],"confidence":0.845706,"label":"person"},{"bbox":[0.730469,0.166667,0.084961,0.217014],"confidence":0.785414,"label":"rod"},{"bbox":[0.756836,0.199653,0.084961,0.130208],"confidence":0.821786,"label":"rod"},{"bbox":[0.552334,0.782047,0.056816,0.086947],"confidence":0.881474,"label":"rod"},{"bbox":[0.588379,0.736111,0.013672,0.026042],"confidence":0.88836,"label":"person"}],"source_ts_ms":1772992138837},"frame_ts_ms":1772992139672,"frame_valid":true,"gps":{"alt_mm":15017,"cog_cdeg":2040,"fix_type":3,"lat_e7":311234584,"lon_e7":1214729983,"satellites_visible":11,"time_usec":"1772992138852000","vel_cms":517},"latency_ms":820,"wall_ts_ms":1772992139676}
{"detection":{"confidence":0,"label":"multi","objects":[{"bbox":[0.692383,0.28559,0.016602,0.045139],"confidence":0.845706,"label":"person"},{"bbox":[0.730469,0.166667,0.084961,0.217014],"confidence":0.785414,"label":"rod"},{"bbox":[0.756836,0.199653,0.084961,0.130208],"confidence":0.821786,"label":"rod"},{"bbox":[0.552334,0.782047,0.056816,0.086947],"confidence":0.881474,"label":"rod"},{"bbox":[0.588379,0.736111,0.013672,0.026042],"confidence":0.88836,"label":"person"}],"source_ts_ms":1772992139837},"frame_ts_ms":1772992140274,"frame_valid":true,"gps":{"alt_mm":15018,"cog_cdeg":2160,"fix_type":3,"lat_e7":311234558,"lon_e7":1214730027,"satellites_visible":11,"time_usec":"1772992139852000","vel_cms":518},"latency_ms":422,"wall_ts_ms":1772992140281}
{"detection":{"confidence":0,"label":"multi","objects":[{"bbox":[0.692383,0.28559,0.016602,0.045139],"confidence":0.845706,"label":"person"},{"bbox":[0.730469,0.166667,0.084961,0.217014],"confidence":0.785414,"label":"rod"},{"bbox":[0.756836,0.199653,0.084961,0.130208],"confidence":0.821786,"label":"rod"},{"bbox":[0.552334,0.782047,0.056816,0.086947],"confidence":0.881474,"label":"rod"},{"bbox":[0.588379,0.736111,0.013672,0.026042],"confidence":0.88836,"label":"person"}],"source_ts_ms":1772992143013},"frame_ts_ms":1772992143052,"frame_valid":true,"gps":{"alt_mm":15019,"cog_cdeg":2280,"fix_type":3,"lat_e7":311234586,"lon_e7":1214730012,"satellites_visible":11,"time_usec":"1772992143028000","vel_cms":519},"latency_ms":24,"wall_ts_ms":1772992143055}
{"detection":{"confidence":0,"label":"multi","objects":[{"bbox":[0.692383,0.28559,0.016602,0.045139],"confidence":0.845706,"label":"person"},{"bbox":[0.730469,0.166667,0.084961,0.217014],"confidence":0.785414,"label":"rod"},{"bbox":[0.756836,0.199653,0.084961,0.130208],"confidence":0.821786,"label":"rod"},{"bbox":[0.552334,0.782047,0.056816,0.086947],"confidence":0.881474,"label":"rod"},{"bbox":[0.588379,0.736111,0.013672,0.026042],"confidence":0.88836,"label":"person"}],"source_ts_ms":1772992143013},"frame_ts_ms":1772992143653,"frame_valid":true,"gps":{"alt_mm":15019,"cog_cdeg":2280,"fix_type":3,"lat_e7":311234586,"lon_e7":1214730012,"satellites_visible":11,"time_usec":"1772992143028000","vel_cms":519},"latency_ms":625,"wall_ts_ms":1772992143659}
{"detection":{"confidence":0,"label":"multi","objects":[{"bbox":[0.692383,0.28559,0.016602,0.045139],"confidence":0.845706,"label":"person"},{"bbox":[0.730469,0.166667,0.084961,0.217014],"confidence":0.785414,"label":"rod"},{"bbox":[0.756836,0.199653,0.084961,0.130208],"confidence":0.821786,"label":"rod"},{"bbox":[0.552334,0.782047,0.056816,0.086947],"confidence":0.881474,"label":"rod"},{"bbox":[0.588379,0.736111,0.013672,0.026042],"confidence":0.88836,"label":"person"}],"source_ts_ms":1772992144013},"frame_ts_ms":1772992144255,"frame_valid":true,"gps":{"alt_mm":15020,"cog_cdeg":2400,"fix_type":3,"lat_e7":311234582,"lon_e7":1214730015,"satellites_visible":11,"time_usec":"1772992144028000","vel_cms":520},"latency_ms":227,"wall_ts_ms":1772992144258}
{"detection":{"confidence":0,"label":"multi","objects":[{"bbox":[0.692383,0.28559,0.016602,0.045139],"confidence":0.845706,"label":"person"},{"bbox":[0.730469,0.166667,0.084961,0.217014],"confidence":0.785414,"label":"rod"},{"bbox":[0.756836,0.199653,0.084961,0.130208],"confidence":0.821786,"label":"rod"},{"bbox":[0.552334,0.782047,0.056816,0.086947],"confidence":0.881474,"label":"rod"},{"bbox":[0.588379,0.736111,0.013672,0.026042],"confidence":0.88836,"label":"person"}],"source_ts_ms":1772992144013},"frame_ts_ms":1772992144857,"frame_valid":true,"gps":{"alt_mm":15020,"cog_cdeg":2400,"fix_type":3,"lat_e7":311234582,"lon_e7":1214730015,"satellites_visible":11,"time_usec":"1772992144028000","vel_cms":520},"latency_ms":829,"wall_ts_ms":1772992144862}
{"detection":{"confidence":0,"label":"multi","objects":[{"bbox":[0.692383,0.28559,0.016602,0.045139],"confidence":0.845706,"label":"person"},{"bbox":[0.730469,0.166667,0.084961,0.217014],"confidence":0.785414,"label":"rod"},{"bbox":[0.756836,0.199653,0.084961,0.130208],"confidence":0.821786,"label":"rod"},{"bbox":[0.552334,0.782047,0.056816,0.086947],"confidence":0.881474,"label":"rod"},{"bbox":[0.588379,0.736111,0.013672,0.026042],"confidence":0.88836,"label":"person"}],"source_ts_ms":1772992145013},"frame_ts_ms":1772992145459,"frame_valid":true,"gps":{"alt_mm":15021,"cog_cdeg":2520,"fix_type":3,"lat_e7":311234581,"lon_e7":1214729987,"satellites_visible":11,"time_usec":"1772992145028000","vel_cms":521},"latency_ms":431,"wall_ts_ms":1772992145462}
{"detection":{"confidence":0,"label":"multi","objects":[{"bbox":[0.692383,0.28559,0.016602,0.045139],"confidence":0.845706,"label":"person"},{"bbox":[0.730469,0.166667,0.084961,0.217014],"confidence":0.785414,"label":"rod"},{"bbox":[0.756836,0.199653,0.084961,0.130208],"confidence":0.821786,"label":"rod"},{"bbox":[0.552334,0.782047,0.056816,0.086947],"confidence":0.881474,"label":"rod"},{"bbox":[0.588379,0.736111,0.013672,0.026042],"confidence":0.88836,"label":"person"}],"source_ts_ms":1772992146013},"frame_ts_ms":1772992146062,"frame_valid":true,"gps":{"alt_mm":15022,"cog_cdeg":2640,"fix_type":3,"lat_e7":311234564,"lon_e7":1214730006,"satellites_visible":11,"time_usec":"1772992146028000","vel_cms":522},"latency_ms":34,"wall_ts_ms":1772992146067}
{"detection":{"confidence":0,"label":"multi","objects":[{"bbox":[0.692383,0.28559,0.016602,0.045139],"confidence":0.845706,"label":"person"},{"bbox":[0.730469,0.166667,0.084961,0.217014],"confidence":0.785414,"label":"rod"},{"bbox":[0.756836,0.199653,0.084961,0.130208],"confidence":0.821786,"label":"rod"},{"bbox":[0.552334,0.782047,0.056816,0.086947],"confidence":0.881474,"label":"rod"},{"bbox":[0.588379,0.736111,0.013672,0.026042],"confidence":0.88836,"label":"person"}],"source_ts_ms":1772992146013},"frame_ts_ms":1772992146665,"frame_valid":true,"gps":{"alt_mm":15022,"cog_cdeg":2640,"fix_type":3,"lat_e7":311234564,"lon_e7":1214730006,"satellites_visible":11,"time_usec":"1772992146028000","vel_cms":522},"latency_ms":637,"wall_ts_ms":1772992146671}
{"detection":{"confidence":0,"label":"multi","objects":[{"bbox":[0.692383,0.28559,0.016602,0.045139],"confidence":0.845706,"label":"person"},{"bbox":[0.730469,0.166667,0.084961,0.217014],"confidence":0.785414,"label":"rod"},{"bbox":[0.756836,0.199653,0.084961,0.130208],"confidence":0.821786,"label":"rod"},{"bbox":[0.552334,0.782047,0.056816,0.086947],"confidence":0.881474,"label":"rod"},{"bbox":[0.588379,0.736111,0.013672,0.026042],"confidence":0.88836,"label":"person"}],"source_ts_ms":1772992147013},"frame_ts_ms":1772992147267,"frame_valid":true,"gps":{"alt_mm":15023,"cog_cdeg":2760,"fix_type":3,"lat_e7":311234559,"lon_e7":1214730012,"satellites_visible":11,"time_usec":"1772992147028000","vel_cms":523},"latency_ms":239,"wall_ts_ms":1772992147274}
{"detection":{"confidence":0,"label":"multi","objects":[{"bbox":[0.692383,0.28559,0.016602,0.045139],"confidence":0.845706,"label":"person"},{"bbox":[0.730469,0.166667,0.084961,0.217014],"confidence":0.785414,"label":"rod"},{"bbox":[0.756836,0.199653,0.084961,0.130208],"confidence":0.821786,"label":"rod"},{"bbox":[0.552334,0.782047,0.056816,0.086947],"confidence":0.881474,"label":"rod"},{"bbox":[0.588379,0.736111,0.013672,0.026042],"confidence":0.88836,"label":"person"}],"source_ts_ms":1772992147013},"frame_ts_ms":1772992147871,"frame_valid":true,"gps":{"alt_mm":15023,"cog_cdeg":2760,"fix_type":3,"lat_e7":311234559,"lon_e7":1214730012,"satellites_visible":11,"time_usec":"1772992147028000","vel_cms":523},"latency_ms":843,"wall_ts_ms":1772992147875}
{"detection":{"confidence":0,"label":"multi","objects":[{"bbox":[0.692383,0.28559,0.016602,0.045139],"confidence":0.845706,"label":"person"},{"bbox":[0.730469,0.166667,0.084961,0.217014],"confidence":0.785414,"label":"rod"},{"bbox":[0.756836,0.199653,0.084961,0.130208],"confidence":0.821786,"label":"rod"},{"bbox":[0.552334,0.782047,0.056816,0.086947],"confidence":0.881474,"label":"rod"},{"bbox":[0.588379,0.736111,0.013672,0.026042],"confidence":0.88836,"label":"person"}],"source_ts_ms":1772992148014},"frame_ts_ms":1772992148473,"frame_valid":true,"gps":{"alt_mm":15024,"cog_cdeg":2880,"fix_type":3,"lat_e7":311234597,"lon_e7":1214729973,"satellites_visible":11,"time_usec":"1772992148029000","vel_cms":524},"latency_ms":444,"wall_ts_ms":1772992148479}
{"detection":{"confidence":0,"label":"multi","objects":[{"bbox":[0.692383,0.28559,0.016602,0.045139],"confidence":0.845706,"label":"person"},{"bbox":[0.730469,0.166667,0.084961,0.217014],"confidence":0.785414,"label":"rod"},{"bbox":[0.756836,0.199653,0.084961,0.130208],"confidence":0.821786,"label":"rod"},{"bbox":[0.552334,0.782047,0.056816,0.086947],"confidence":0.881474,"label":"rod"},{"bbox":[0.588379,0.736111,0.013672,0.026042],"confidence":0.88836,"label":"person"}],"source_ts_ms":1772992149014},"frame_ts_ms":1772992149076,"frame_valid":true,"gps":{"alt_mm":15025,"cog_cdeg":3000,"fix_type":3,"lat_e7":311234572,"lon_e7":1214730013,"satellites_visible":11,"time_usec":"1772992149029000","vel_cms":525},"latency_ms":47,"wall_ts_ms":1772992149079}
{"detection":{"confidence":0,"label":"multi","objects":[{"bbox":[0.692383,0.28559,0.016602,0.045139],"confidence":0.845706,"label":"person"},{"bbox":[0.730469,0.166667,0.084961,0.217014],"confidence":0.785414,"label":"rod"},{"bbox":[0.756836,0.199653,0.084961,0.130208],"confidence":0.821786,"label":"rod"},{"bbox":[0.552334,0.782047,0.056816,0.086947],"confidence":0.881474,"label":"rod"},{"bbox":[0.588379,0.736111,0.013672,0.026042],"confidence":0.88836,"label":"person"}],"source_ts_ms":1772992149014},"frame_ts_ms":1772992149678,"frame_valid":true,"gps":{"alt_mm":15025,"cog_cdeg":3000,"fix_type":3,"lat_e7":311234572,"lon_e7":1214730013,"satellites_visible":11,"time_usec":"1772992149029000","vel_cms":525},"latency_ms":649,"wall_ts_ms":1772992149683}
{"detection":{"confidence":0,"label":"multi","objects":[{"bbox":[0.692383,0.28559,0.016602,0.045139],"confidence":0.845706,"label":"person"},{"bbox":[0.730469,0.166667,0.084961,0.217014],"confidence":0.785414,"label":"rod"},{"bbox":[0.756836,0.199653,0.084961,0.130208],"confidence":0.821786,"label":"rod"},{"bbox":[0.552334,0.782047,0.056816,0.086947],"confidence":0.881474,"label":"rod"},{"bbox":[0.588379,0.736111,0.013672,0.026042],"confidence":0.88836,"label":"person"}],"source_ts_ms":1772992150014},"frame_ts_ms":1772992150280,"frame_valid":true,"gps":{"alt_mm":15026,"cog_cdeg":3120,"fix_type":3,"lat_e7":311234540,"lon_e7":1214730007,"satellites_visible":11,"time_usec":"1772992150029000","vel_cms":526},"latency_ms":251,"wall_ts_ms":1772992150284}
{"detection":{"confidence":0,"label":"multi","objects":[{"bbox":[0.692383,0.28559,0.016602,0.045139],"confidence":0.845706,"label":"person"},{"bbox":[0.730469,0.166667,0.084961,0.217014],"confidence":0.785414,"label":"rod"},{"bbox":[0.756836,0.199653,0.084961,0.130208],"confidence":0.821786,"label":"rod"},{"bbox":[0.552334,0.782047,0.056816,0.086947],"confidence":0.881474,"label":"rod"},{"bbox":[0.588379,0.736111,0.013672,0.026042],"confidence":0.88836,"label":"person"}],"source_ts_ms":1772992150014},"frame_ts_ms":1772992150882,"frame_valid":true,"gps":{"alt_mm":15026,"cog_cdeg":3120,"fix_type":3,"lat_e7":311234540,"lon_e7":1214730007,"satellites_visible":11,"time_usec":"1772992150029000","vel_cms":526},"latency_ms":853,"wall_ts_ms":1772992150888}
{"detection":{"confidence":0,"label":"multi","objects":[{"bbox":[0.692383,0.28559,0.016602,0.045139],"confidence":0.845706,"label":"person"},{"bbox":[0.730469,0.166667,0.084961,0.217014],"confidence":0.785414,"label":"rod"},{"bbox":[0.756836,0.199653,0.084961,0.130208],"confidence":0.821786,"label":"rod"},{"bbox":[0.552334,0.782047,0.056816,0.086947],"confidence":0.881474,"label":"rod"},{"bbox":[0.588379,0.736111,0.013672,0.026042],"confidence":0.88836,"label":"person"}],"source_ts_ms":1772992151014},"frame_ts_ms":1772992151484,"frame_valid":true,"gps":{"alt_mm":15027,"cog_cdeg":3240,"fix_type":3,"lat_e7":311234549,"lon_e7":1214730028,"satellites_visible":11,"time_usec":"1772992151029000","vel_cms":527},"latency_ms":455,"wall_ts_ms":1772992151489}
{"detection":{"confidence":0,"label":"multi","objects":[{"bbox":[0.692383,0.28559,0.016602,0.045139],"confidence":0.845706,"label":"person"},{"bbox":[0.730469,0.166667,0.084961,0.217014],"confidence":0.785414,"label":"rod"},{"bbox":[0.756836,0.199653,0.084961,0.130208],"confidence":0.821786,"label":"rod"},{"bbox":[0.552334,0.782047,0.056816,0.086947],"confidence":0.881474,"label":"rod"},{"bbox":[0.588379,0.736111,0.013672,0.026042],"confidence":0.88836,"label":"person"}],"source_ts_ms":1772992152014},"frame_ts_ms":1772992152086,"frame_valid":true,"gps":{"alt_mm":15028,"cog_cdeg":3360,"fix_type":3,"lat_e7":311234586,"lon_e7":1214729976,"satellites_visible":11,"time_usec":"1772992152029000","vel_cms":528},"latency_ms":57,"wall_ts_ms":1772992152091}
{"detection":{"confidence":0,"label":"multi","objects":[{"bbox":[0.692383,0.28559,0.016602,0.045139],"confidence":0.845706,"label":"person"},{"bbox":[0.730469,0.166667,0.084961,0.217014],"confidence":0.785414,"label":"rod"},{"bbox":[0.756836,0.199653,0.084961,0.130208],"confidence":0.821786,"label":"rod"},{"bbox":[0.552334,0.782047,0.056816,0.086947],"confidence":0.881474,"label":"rod"},{"bbox":[0.588379,0.736111,0.013672,0.026042],"confidence":0.88836,"label":"person"}],"source_ts_ms":1772992152014},"frame_ts_ms":1772992152688,"frame_valid":true,"gps":{"alt_mm":15028,"cog_cdeg":3360,"fix_type":3,"lat_e7":311234586,"lon_e7":1214729976,"satellites_visible":11,"time_usec":"1772992152029000","vel_cms":528},"latency_ms":659,"wall_ts_ms":1772992152693}
{"detection":{"confidence":0,"label":"multi","objects":[{"bbox":[0.692383,0.28559,0.016602,0.045139],"confidence":0.845706,"label":"person"},{"bbox":[0.730469,0.166667,0.084961,0.217014],"confidence":0.785414,"label":"rod"},{"bbox":[0.756836,0.199653,0.084961,0.130208],"confidence":0.821786,"label":"rod"},{"bbox":[0.552334,0.782047,0.056816,0.086947],"confidence":0.881474,"label":"rod"},{"bbox":[0.588379,0.736111,0.013672,0.026042],"confidence":0.88836,"label":"person"}],"source_ts_ms":1772992153015},"frame_ts_ms":1772992153289,"frame_valid":true,"gps":{"alt_mm":15029,"cog_cdeg":3480,"fix_type":3,"lat_e7":311234592,"lon_e7":1214730019,"satellites_visible":11,"time_usec":"1772992153030000","vel_cms":529},"latency_ms":259,"wall_ts_ms":1772992153295}
{"detection":{"confidence":0,"label":"multi","objects":[{"bbox":[0.692383,0.28559,0.016602,0.045139],"confidence":0.845706,"label":"person"},{"bbox":[0.730469,0.166667,0.084961,0.217014],"confidence":0.785414,"label":"rod"},{"bbox":[0.756836,0.199653,0.084961,0.130208],"confidence":0.821786,"label":"rod"},{"bbox":[0.552334,0.782047,0.056816,0.086947],"confidence":0.881474,"label":"rod"},{"bbox":[0.588379,0.736111,0.013672,0.026042],"confidence":0.88836,"label":"person"}],"source_ts_ms":1772992153015},"frame_ts_ms":1772992153891,"frame_valid":true,"gps":{"alt_mm":15029,"cog_cdeg":3480,"fix_type":3,"lat_e7":311234592,"lon_e7":1214730019,"satellites_visible":11,"time_usec":"1772992153030000","vel_cms":529},"latency_ms":861,"wall_ts_ms":1772992153894}
{"detection":{"confidence":0,"label":"multi","objects":[{"bbox":[0.692383,0.28559,0.016602,0.045139],"confidence":0.845706,"label":"person"},{"bbox":[0.730469,0.166667,0.084961,0.217014],"confidence":0.785414,"label":"rod"},{"bbox":[0.756836,0.199653,0.084961,0.130208],"confidence":0.821786,"label":"rod"},{"bbox":[0.552334,0.782047,0.056816,0.086947],"confidence":0.881474,"label":"rod"},{"bbox":[0.588379,0.736111,0.013672,0.026042],"confidence":0.88836,"label":"person"}],"source_ts_ms":1772992154015},"frame_ts_ms":1772992154493,"frame_valid":true,"gps":{"alt_mm":15030,"cog_cdeg":3600,"fix_type":3,"lat_e7":311234579,"lon_e7":1214729989,"satellites_visible":11,"time_usec":"1772992154030000","vel_cms":530},"latency_ms":463,"wall_ts_ms":1772992154498}
{"detection":{"confidence":0,"label":"multi","objects":[{"bbox":[0.692383,0.28559,0.016602,0.045139],"confidence":0.845706,"label":"person"},{"bbox":[0.730469,0.166667,0.084961,0.217014],"confidence":0.785414,"label":"rod"},{"bbox":[0.756836,0.199653,0.084961,0.130208],"confidence":0.821786,"label":"rod"},{"bbox":[0.552334,0.782047,0.056816,0.086947],"confidence":0.881474,"label":"rod"},{"bbox":[0.588379,0.736111,0.013672,0.026042],"confidence":0.88836,"label":"person"}],"source_ts_ms":1772992155015},"frame_ts_ms":1772992155094,"frame_valid":true,"gps":{"alt_mm":15031,"cog_cdeg":3720,"fix_type":3,"lat_e7":311234592,"lon_e7":1214730003,"satellites_visible":11,"time_usec":"1772992155030000","vel_cms":531},"latency_ms":64,"wall_ts_ms":1772992155098}
{"detection":{"confidence":0,"label":"multi","objects":[{"bbox":[0.692383,0.28559,0.016602,0.045139],"confidence":0.845706,"label":"person"},{"bbox":[0.730469,0.166667,0.084961,0.217014],"confidence":0.785414,"label":"rod"},{"bbox":[0.756836,0.199653,0.084961,0.130208],"confidence":0.821786,"label":"rod"},{"bbox":[0.552334,0.782047,0.056816,0.086947],"confidence":0.881474,"label":"rod"},{"bbox":[0.588379,0.736111,0.013672,0.026042],"confidence":0.88836,"label":"person"}],"source_ts_ms":1772992155015},"frame_ts_ms":1772992155697,"frame_valid":true,"gps":{"alt_mm":15031,"cog_cdeg":3720,"fix_type":3,"lat_e7":311234592,"lon_e7":1214730003,"satellites_visible":11,"time_usec":"1772992155030000","vel_cms":531},"latency_ms":667,"wall_ts_ms":1772992155705}
{"detection":{"confidence":0,"label":"multi","objects":[{"bbox":[0.692383,0.28559,0.016602,0.045139],"confidence":0.845706,"label":"person"},{"bbox":[0.730469,0.166667,0.084961,0.217014],"confidence":0.785414,"label":"rod"},{"bbox":[0.756836,0.199653,0.084961,0.130208],"confidence":0.821786,"label":"rod"},{"bbox":[0.552334,0.782047,0.056816,0.086947],"confidence":0.881474,"label":"rod"},{"bbox":[0.588379,0.736111,0.013672,0.026042],"confidence":0.88836,"label":"person"}],"source_ts_ms":1772992156015},"frame_ts_ms":1772992156298,"frame_valid":true,"gps":{"alt_mm":15032,"cog_cdeg":3840,"fix_type":3,"lat_e7":311234590,"lon_e7":1214730020,"satellites_visible":11,"time_usec":"1772992156030000","vel_cms":532},"latency_ms":268,"wall_ts_ms":1772992156302}
{"detection":{"confidence":0,"label":"multi","objects":[{"bbox":[0.692383,0.28559,0.016602,0.045139],"confidence":0.845706,"label":"person"},{"bbox":[0.730469,0.166667,0.084961,0.217014],"confidence":0.785414,"label":"rod"},{"bbox":[0.756836,0.199653,0.084961,0.130208],"confidence":0.821786,"label":"rod"},{"bbox":[0.552334,0.782047,0.056816,0.086947],"confidence":0.881474,"label":"rod"},{"bbox":[0.588379,0.736111,0.013672,0.026042],"confidence":0.88836,"label":"person"}],"source_ts_ms":1772992156015},"frame_ts_ms":1772992156901,"frame_valid":true,"gps":{"alt_mm":15032,"cog_cdeg":3840,"fix_type":3,"lat_e7":311234590,"lon_e7":1214730020,"satellites_visible":11,"time_usec":"1772992156030000","vel_cms":532},"latency_ms":871,"wall_ts_ms":1772992156906}
{"detection":{"confidence":0,"label":"multi","objects":[{"bbox":[0.692383,0.28559,0.016602,0.045139],"confidence":0.845706,"label":"person"},{"bbox":[0.730469,0.166667,0.084961,0.217014],"confidence":0.785414,"label":"rod"},{"bbox":[0.756836,0.199653,0.084961,0.130208],"confidence":0.821786,"label":"rod"},{"bbox":[0.552334,0.782047,0.056816,0.086947],"confidence":0.881474,"label":"rod"},{"bbox":[0.588379,0.736111,0.013672,0.026042],"confidence":0.88836,"label":"person"}],"source_ts_ms":1772992157015},"frame_ts_ms":1772992157503,"frame_valid":true,"gps":{"alt_mm":15033,"cog_cdeg":3960,"fix_type":3,"lat_e7":311234537,"lon_e7":1214729987,"satellites_visible":11,"time_usec":"1772992157030000","vel_cms":533},"latency_ms":473,"wall_ts_ms":1772992157506}
{"detection":{"confidence":0,"label":"multi","objects":[{"bbox":[0.692383,0.28559,0.016602,0.045139],"confidence":0.845706,"label":"person"},{"bbox":[0.730469,0.166667,0.084961,0.217014],"confidence":0.785414,"label":"rod"},{"bbox":[0.756836,0.199653,0.084961,0.130208],"confidence":0.821786,"label":"rod"},{"bbox":[0.552334,0.782047,0.056816,0.086947],"confidence":0.881474,"label":"rod"},{"bbox":[0.588379,0.736111,0.013672,0.026042],"confidence":0.88836,"label":"person"}],"source_ts_ms":1772992158015},"frame_ts_ms":1772992158105,"frame_valid":true,"gps":{"alt_mm":15034,"cog_cdeg":4080,"fix_type":3,"lat_e7":311234579,"lon_e7":1214730016,"satellites_visible":11,"time_usec":"1772992158030000","vel_cms":534},"latency_ms":75,"wall_ts_ms":1772992158110}
{"detection":{"confidence":0,"label":"multi","objects":[{"bbox":[0.692383,0.28559,0.016602,0.045139],"confidence":0.845706,"label":"person"},{"bbox":[0.730469,0.166667,0.084961,0.217014],"confidence":0.785414,"label":"rod"},{"bbox":[0.756836,0.199653,0.084961,0.130208],"confidence":0.821786,"label":"rod"},{"bbox":[0.552334,0.782047,0.056816,0.086947],"confidence":0.881474,"label":"rod"},{"bbox":[0.588379,0.736111,0.013672,0.026042],"confidence":0.88836,"label":"person"}],"source_ts_ms":1772992158015},"frame_ts_ms":1772992158707,"frame_valid":true,"gps":{"alt_mm":15034,"cog_cdeg":4080,"fix_type":3,"lat_e7":311234579,"lon_e7":1214730016,"satellites_visible":11,"time_usec":"1772992158030000","vel_cms":534},"latency_ms":677,"wall_ts_ms":1772992158711}
{"detection":{"confidence":0,"label":"multi","objects":[{"bbox":[0.692383,0.28559,0.016602,0.045139],"confidence":0.845706,"label":"person"},{"bbox":[0.730469,0.166667,0.084961,0.217014],"confidence":0.785414,"label":"rod"},{"bbox":[0.756836,0.199653,0.084961,0.130208],"confidence":0.821786,"label":"rod"},{"bbox":[0.552334,0.782047,0.056816,0.086947],"confidence":0.881474,"label":"rod"},{"bbox":[0.588379,0.736111,0.013672,0.026042],"confidence":0.88836,"label":"person"}],"source_ts_ms":1772992159015},"frame_ts_ms":1772992159309,"frame_valid":true,"gps":{"alt_mm":15035,"cog_cdeg":4200,"fix_type":3,"lat_e7":311234577,"lon_e7":1214729982,"satellites_visible":11,"time_usec":"1772992159030000","vel_cms":535},"latency_ms":279,"wall_ts_ms":1772992159313}
{"detection":{"confidence":0,"label":"multi","objects":[{"bbox":[0.692383,0.28559,0.016602,0.045139],"confidence":0.845706,"label":"person"},{"bbox":[0.730469,0.166667,0.084961,0.217014],"confidence":0.785414,"label":"rod"},{"bbox":[0.756836,0.199653,0.084961,0.130208],"confidence":0.821786,"label":"rod"},{"bbox":[0.552334,0.782047,0.056816,0.086947],"confidence":0.881474,"label":"rod"},{"bbox":[0.588379,0.736111,0.013672,0.026042],"confidence":0.88836,"label":"person"}],"source_ts_ms":1772992159015},"frame_ts_ms":1772992159947,"frame_valid":true,"gps":{"alt_mm":15035,"cog_cdeg":4200,"fix_type":3,"lat_e7":311234577,"lon_e7":1214729982,"satellites_visible":11,"time_usec":"1772992159030000","vel_cms":535},"latency_ms":917,"wall_ts_ms":1772992159950}
{"detection":{"confidence":0,"label":"multi","objects":[{"bbox":[0.692383,0.28559,0.016602,0.045139],"confidence":0.845706,"label":"person"},{"bbox":[0.730469,0.166667,0.084961,0.217014],"confidence":0.785414,"label":"rod"},{"bbox":[0.756836,0.199653,0.084961,0.130208],"confidence":0.821786,"label":"rod"},{"bbox":[0.552334,0.782047,0.056816,0.086947],"confidence":0.881474,"label":"rod"},{"bbox":[0.588379,0.736111,0.013672,0.026042],"confidence":0.88836,"label":"person"}],"source_ts_ms":1772992160016},"frame_ts_ms":1772992160513,"frame_valid":true,"gps":{"alt_mm":15036,"cog_cdeg":4320,"fix_type":3,"lat_e7":311234548,"lon_e7":1214729994,"satellites_visible":11,"time_usec":"1772992160031000","vel_cms":536},"latency_ms":482,"wall_ts_ms":1772992160518}
{"detection":{"confidence":0,"label":"multi","objects":[{"bbox":[0.692383,0.28559,0.016602,0.045139],"confidence":0.845706,"label":"person"},{"bbox":[0.730469,0.166667,0.084961,0.217014],"confidence":0.785414,"label":"rod"},{"bbox":[0.756836,0.199653,0.084961,0.130208],"confidence":0.821786,"label":"rod"},{"bbox":[0.552334,0.782047,0.056816,0.086947],"confidence":0.881474,"label":"rod"},{"bbox":[0.588379,0.736111,0.013672,0.026042],"confidence":0.88836,"label":"person"}],"source_ts_ms":1772992161016},"frame_ts_ms":1772992161115,"frame_valid":true,"gps":{"alt_mm":15037,"cog_cdeg":4440,"fix_type":3,"lat_e7":311234554,"lon_e7":1214730008,"satellites_visible":11,"time_usec":"1772992161031000","vel_cms":537},"latency_ms":84,"wall_ts_ms":1772992161118}
{"detection":{"confidence":0,"label":"multi","objects":[{"bbox":[0.692383,0.28559,0.016602,0.045139],"confidence":0.845706,"label":"person"},{"bbox":[0.730469,0.166667,0.084961,0.217014],"confidence":0.785414,"label":"rod"},{"bbox":[0.756836,0.199653,0.084961,0.130208],"confidence":0.821786,"label":"rod"},{"bbox":[0.552334,0.782047,0.056816,0.086947],"confidence":0.881474,"label":"rod"},{"bbox":[0.588379,0.736111,0.013672,0.026042],"confidence":0.88836,"label":"person"}],"source_ts_ms":1772992161016},"frame_ts_ms":1772992161716,"frame_valid":true,"gps":{"alt_mm":15037,"cog_cdeg":4440,"fix_type":3,"lat_e7":311234554,"lon_e7":1214730008,"satellites_visible":11,"time_usec":"1772992161031000","vel_cms":537},"latency_ms":685,"wall_ts_ms":1772992161722}
{"detection":{"confidence":0,"label":"multi","objects":[{"bbox":[0.692383,0.28559,0.016602,0.045139],"confidence":0.845706,"label":"person"},{"bbox":[0.730469,0.166667,0.084961,0.217014],"confidence":0.785414,"label":"rod"},{"bbox":[0.756836,0.199653,0.084961,0.130208],"confidence":0.821786,"label":"rod"},{"bbox":[0.552334,0.782047,0.056816,0.086947],"confidence":0.881474,"label":"rod"},{"bbox":[0.588379,0.736111,0.013672,0.026042],"confidence":0.88836,"label":"person"}],"source_ts_ms":1772992162016},"frame_ts_ms":1772992162318,"frame_valid":true,"gps":{"alt_mm":15038,"cog_cdeg":4560,"fix_type":3,"lat_e7":311234591,"lon_e7":1214729999,"satellites_visible":11,"time_usec":"1772992162031000","vel_cms":538},"latency_ms":287,"wall_ts_ms":1772992162323}
{"detection":{"confidence":0,"label":"multi","objects":[{"bbox":[0.692383,0.28559,0.016602,0.045139],"confidence":0.845706,"label":"person"},{"bbox":[0.730469,0.166667,0.084961,0.217014],"confidence":0.785414,"label":"rod"},{"bbox":[0.756836,0.199653,0.084961,0.130208],"confidence":0.821786,"label":"rod"},{"bbox":[0.552334,0.782047,0.056816,0.086947],"confidence":0.881474,"label":"rod"},{"bbox":[0.588379,0.736111,0.013672,0.026042],"confidence":0.88836,"label":"person"}],"source_ts_ms":1772992162016},"frame_ts_ms":1772992162920,"frame_valid":true,"gps":{"alt_mm":15038,"cog_cdeg":4560,"fix_type":3,"lat_e7":311234591,"lon_e7":1214729999,"satellites_visible":11,"time_usec":"1772992162031000","vel_cms":538},"latency_ms":889,"wall_ts_ms":1772992162925}
{"detection":{"confidence":0,"label":"multi","objects":[{"bbox":[0.692383,0.28559,0.016602,0.045139],"confidence":0.845706,"label":"person"},{"bbox":[0.730469,0.166667,0.084961,0.217014],"confidence":0.785414,"label":"rod"},{"bbox":[0.756836,0.199653,0.084961,0.130208],"confidence":0.821786,"label":"rod"},{"bbox":[0.552334,0.782047,0.056816,0.086947],"confidence":0.881474,"label":"rod"},{"bbox":[0.588379,0.736111,0.013672,0.026042],"confidence":0.88836,"label":"person"}],"source_ts_ms":1772992163016},"frame_ts_ms":1772992163522,"frame_valid":true,"gps":{"alt_mm":15039,"cog_cdeg":4680,"fix_type":3,"lat_e7":311234565,"lon_e7":1214729984,"satellites_visible":11,"time_usec":"1772992163031000","vel_cms":539},"latency_ms":491,"wall_ts_ms":1772992163526}
{"detection":{"confidence":0,"label":"multi","objects":[{"bbox":[0.692383,0.28559,0.016602,0.045139],"confidence":0.845706,"label":"person"},{"bbox":[0.730469,0.166667,0.084961,0.217014],"confidence":0.785414,"label":"rod"},{"bbox":[0.756836,0.199653,0.084961,0.130208],"confidence":0.821786,"label":"rod"},{"bbox":[0.552334,0.782047,0.056816,0.086947],"confidence":0.881474,"label":"rod"},{"bbox":[0.588379,0.736111,0.013672,0.026042],"confidence":0.88836,"label":"person"}],"source_ts_ms":1772992164016},"frame_ts_ms":1772992164124,"frame_valid":true,"gps":{"alt_mm":15040,"cog_cdeg":4800,"fix_type":3,"lat_e7":311234578,"lon_e7":1214730019,"satellites_visible":11,"time_usec":"1772992164031000","vel_cms":540},"latency_ms":93,"wall_ts_ms":1772992164130}
{"detection":{"confidence":0,"label":"multi","objects":[{"bbox":[0.692383,0.28559,0.016602,0.045139],"confidence":0.845706,"label":"person"},{"bbox":[0.730469,0.166667,0.084961,0.217014],"confidence":0.785414,"label":"rod"},{"bbox":[0.756836,0.199653,0.084961,0.130208],"confidence":0.821786,"label":"rod"},{"bbox":[0.552334,0.782047,0.056816,0.086947],"confidence":0.881474,"label":"rod"},{"bbox":[0.588379,0.736111,0.013672,0.026042],"confidence":0.88836,"label":"person"}],"source_ts_ms":1772992164016},"frame_ts_ms":1772992164727,"frame_valid":true,"gps":{"alt_mm":15040,"cog_cdeg":4800,"fix_type":3,"lat_e7":311234578,"lon_e7":1214730019,"satellites_visible":11,"time_usec":"1772992164031000","vel_cms":540},"latency_ms":696,"wall_ts_ms":1772992164732}
{"detection":{"confidence":0,"label":"multi","objects":[{"bbox":[0.692383,0.28559,0.016602,0.045139],"confidence":0.845706,"label":"person"},{"bbox":[0.730469,0.166667,0.084961,0.217014],"confidence":0.785414,"label":"rod"},{"bbox":[0.756836,0.199653,0.084961,0.130208],"confidence":0.821786,"label":"rod"},{"bbox":[0.552334,0.782047,0.056816,0.086947],"confidence":0.881474,"label":"rod"},{"bbox":[0.588379,0.736111,0.013672,0.026042],"confidence":0.88836,"label":"person"}],"source_ts_ms":1772992165016},"frame_ts_ms":1772992165329,"frame_valid":true,"gps":{"alt_mm":15041,"cog_cdeg":4920,"fix_type":3,"lat_e7":311234578,"lon_e7":1214729976,"satellites_visible":11,"time_usec":"1772992165031000","vel_cms":541},"latency_ms":298,"wall_ts_ms":1772992165337}
{"detection":{"confidence":0,"label":"multi","objects":[{"bbox":[0.692383,0.28559,0.016602,0.045139],"confidence":0.845706,"label":"person"},{"bbox":[0.730469,0.166667,0.084961,0.217014],"confidence":0.785414,"label":"rod"},{"bbox":[0.756836,0.199653,0.084961,0.130208],"confidence":0.821786,"label":"rod"},{"bbox":[0.552334,0.782047,0.056816,0.086947],"confidence":0.881474,"label":"rod"},{"bbox":[0.588379,0.736111,0.013672,0.026042],"confidence":0.88836,"label":"person"}],"source_ts_ms":1772992165016},"frame_ts_ms":1772992165931,"frame_valid":true,"gps":{"alt_mm":15041,"cog_cdeg":4920,"fix_type":3,"lat_e7":311234578,"lon_e7":1214729976,"satellites_visible":11,"time_usec":"1772992165031000","vel_cms":541},"latency_ms":900,"wall_ts_ms":1772992165935}
{"detection":{"confidence":0,"label":"multi","objects":[{"bbox":[0.692383,0.28559,0.016602,0.045139],"confidence":0.845706,"label":"person"},{"bbox":[0.730469,0.166667,0.084961,0.217014],"confidence":0.785414,"label":"rod"},{"bbox":[0.756836,0.199653,0.084961,0.130208],"confidence":0.821786,"label":"rod"},{"bbox":[0.552334,0.782047,0.056816,0.086947],"confidence":0.881474,"label":"rod"},{"bbox":[0.588379,0.736111,0.013672,0.026042],"confidence":0.88836,"label":"person"}],"source_ts_ms":1772992166017},"frame_ts_ms":1772992166532,"frame_valid":true,"gps":{"alt_mm":15042,"cog_cdeg":5040,"fix_type":3,"lat_e7":311234590,"lon_e7":1214729977,"satellites_visible":11,"time_usec":"1772992166032000","vel_cms":542},"latency_ms":500,"wall_ts_ms":1772992166538}
{"detection":{"confidence":0,"label":"multi","objects":[{"bbox":[0.692383,0.28559,0.016602,0.045139],"confidence":0.845706,"label":"person"},{"bbox":[0.730469,0.166667,0.084961,0.217014],"confidence":0.785414,"label":"rod"},{"bbox":[0.756836,0.199653,0.084961,0.130208],"confidence":0.821786,"label":"rod"},{"bbox":[0.552334,0.782047,0.056816,0.086947],"confidence":0.881474,"label":"rod"},{"bbox":[0.588379,0.736111,0.013672,0.026042],"confidence":0.88836,"label":"person"}],"source_ts_ms":1772992167017},"frame_ts_ms":1772992167136,"frame_valid":true,"gps":{"alt_mm":15043,"cog_cdeg":5160,"fix_type":3,"lat_e7":311234554,"lon_e7":1214729983,"satellites_visible":11,"time_usec":"1772992167032000","vel_cms":543},"latency_ms":104,"wall_ts_ms":1772992167140}
{"detection":{"confidence":0,"label":"multi","objects":[{"bbox":[0.692383,0.28559,0.016602,0.045139],"confidence":0.845706,"label":"person"},{"bbox":[0.730469,0.166667,0.084961,0.217014],"confidence":0.785414,"label":"rod"},{"bbox":[0.756836,0.199653,0.084961,0.130208],"confidence":0.821786,"label":"rod"},{"bbox":[0.552334,0.782047,0.056816,0.086947],"confidence":0.881474,"label":"rod"},{"bbox":[0.588379,0.736111,0.013672,0.026042],"confidence":0.88836,"label":"person"}],"source_ts_ms":1772992167017},"frame_ts_ms":1772992167738,"frame_valid":true,"gps":{"alt_mm":15043,"cog_cdeg":5160,"fix_type":3,"lat_e7":311234554,"lon_e7":1214729983,"satellites_visible":11,"time_usec":"1772992167032000","vel_cms":543},"latency_ms":706,"wall_ts_ms":1772992167744}
{"detection":{"confidence":0,"label":"multi","objects":[{"bbox":[0.692383,0.28559,0.016602,0.045139],"confidence":0.845706,"label":"person"},{"bbox":[0.730469,0.166667,0.084961,0.217014],"confidence":0.785414,"label":"rod"},{"bbox":[0.756836,0.199653,0.084961,0.130208],"confidence":0.821786,"label":"rod"},{"bbox":[0.552334,0.782047,0.056816,0.086947],"confidence":0.881474,"label":"rod"},{"bbox":[0.588379,0.736111,0.013672,0.026042],"confidence":0.88836,"label":"person"}],"source_ts_ms":1772992168017},"frame_ts_ms":1772992168341,"frame_valid":true,"gps":{"alt_mm":15044,"cog_cdeg":5280,"fix_type":3,"lat_e7":311234587,"lon_e7":1214730003,"satellites_visible":11,"time_usec":"1772992168032000","vel_cms":544},"latency_ms":309,"wall_ts_ms":1772992168347}
{"detection":{"confidence":0,"label":"multi","objects":[{"bbox":[0.692383,0.28559,0.016602,0.045139],"confidence":0.845706,"label":"person"},{"bbox":[0.730469,0.166667,0.084961,0.217014],"confidence":0.785414,"label":"rod"},{"bbox":[0.756836,0.199653,0.084961,0.130208],"confidence":0.821786,"label":"rod"},{"bbox":[0.552334,0.782047,0.056816,0.086947],"confidence":0.881474,"label":"rod"},{"bbox":[0.588379,0.736111,0.013672,0.026042],"confidence":0.88836,"label":"person"}],"source_ts_ms":1772992168017},"frame_ts_ms":1772992168943,"frame_valid":true,"gps":{"alt_mm":15044,"cog_cdeg":5280,"fix_type":3,"lat_e7":311234587,"lon_e7":1214730003,"satellites_visible":11,"time_usec":"1772992168032000","vel_cms":544},"latency_ms":911,"wall_ts_ms":1772992168950}
{"detection":{"confidence":0,"label":"multi","objects":[{"bbox":[0.692383,0.28559,0.016602,0.045139],"confidence":0.845706,"label":"person"},{"bbox":[0.730469,0.166667,0.084961,0.217014],"confidence":0.785414,"label":"rod"},{"bbox":[0.756836,0.199653,0.084961,0.130208],"confidence":0.821786,"label":"rod"},{"bbox":[0.552334,0.782047,0.056816,0.086947],"confidence":0.881474,"label":"rod"},{"bbox":[0.588379,0.736111,0.013672,0.026042],"confidence":0.88836,"label":"person"}],"source_ts_ms":1772992169017},"frame_ts_ms":1772992169545,"frame_valid":true,"gps":{"alt_mm":15045,"cog_cdeg":5400,"fix_type":3,"lat_e7":311234556,"lon_e7":1214729998,"satellites_visible":11,"time_usec":"1772992169032000","vel_cms":545},"latency_ms":513,"wall_ts_ms":1772992169549}
{"detection":{"confidence":0,"label":"multi","objects":[{"bbox":[0.692383,0.28559,0.016602,0.045139],"confidence":0.845706,"label":"person"},{"bbox":[0.730469,0.166667,0.084961,0.217014],"confidence":0.785414,"label":"rod"},{"bbox":[0.756836,0.199653,0.084961,0.130208],"confidence":0.821786,"label":"rod"},{"bbox":[0.552334,0.782047,0.056816,0.086947],"confidence":0.881474,"label":"rod"},{"bbox":[0.588379,0.736111,0.013672,0.026042],"confidence":0.88836,"label":"person"}],"source_ts_ms":1772992170017},"frame_ts_ms":1772992170147,"frame_valid":true,"gps":{"alt_mm":15046,"cog_cdeg":5520,"fix_type":3,"lat_e7":311234553,"lon_e7":1214729991,"satellites_visible":11,"time_usec":"1772992170032000","vel_cms":546},"latency_ms":115,"wall_ts_ms":1772992170153}
{"detection":{"confidence":0,"label":"multi","objects":[{"bbox":[0.692383,0.28559,0.016602,0.045139],"confidence":0.845706,"label":"person"},{"bbox":[0.730469,0.166667,0.084961,0.217014],"confidence":0.785414,"label":"rod"},{"bbox":[0.756836,0.199653,0.084961,0.130208],"confidence":0.821786,"label":"rod"},{"bbox":[0.552334,0.782047,0.056816,0.086947],"confidence":0.881474,"label":"rod"},{"bbox":[0.588379,0.736111,0.013672,0.026042],"confidence":0.88836,"label":"person"}],"source_ts_ms":1772992170017},"frame_ts_ms":1772992170749,"frame_valid":true,"gps":{"alt_mm":15046,"cog_cdeg":5520,"fix_type":3,"lat_e7":311234553,"lon_e7":1214729991,"satellites_visible":11,"time_usec":"1772992170032000","vel_cms":546},"latency_ms":717,"wall_ts_ms":1772992170753}
{"detection":{"confidence":0,"label":"multi","objects":[{"bbox":[0.692383,0.28559,0.016602,0.045139],"confidence":0.845706,"label":"person"},{"bbox":[0.730469,0.166667,0.084961,0.217014],"confidence":0.785414,"label":"rod"},{"bbox":[0.756836,0.199653,0.084961,0.130208],"confidence":0.821786,"label":"rod"},{"bbox":[0.552334,0.782047,0.056816,0.086947],"confidence":0.881474,"label":"rod"},{"bbox":[0.588379,0.736111,0.013672,0.026042],"confidence":0.88836,"label":"person"}],"source_ts_ms":1772992171017},"frame_ts_ms":1772992171351,"frame_valid":true,"gps":{"alt_mm":15047,"cog_cdeg":5640,"fix_type":3,"lat_e7":311234596,"lon_e7":1214729980,"satellites_visible":11,"time_usec":"1772992171032000","vel_cms":547},"latency_ms":319,"wall_ts_ms":1772992171357}
{"detection":{"confidence":0,"label":"multi","objects":[{"bbox":[0.692383,0.28559,0.016602,0.045139],"confidence":0.845706,"label":"person"},{"bbox":[0.730469,0.166667,0.084961,0.217014],"confidence":0.785414,"label":"rod"},{"bbox":[0.756836,0.199653,0.084961,0.130208],"confidence":0.821786,"label":"rod"},{"bbox":[0.552334,0.782047,0.056816,0.086947],"confidence":0.881474,"label":"rod"},{"bbox":[0.588379,0.736111,0.013672,0.026042],"confidence":0.88836,"label":"person"}],"source_ts_ms":1772992171017},"frame_ts_ms":1772992171953,"frame_valid":true,"gps":{"alt_mm":15047,"cog_cdeg":5640,"fix_type":3,"lat_e7":311234596,"lon_e7":1214729980,"satellites_visible":11,"time_usec":"1772992171032000","vel_cms":547},"latency_ms":921,"wall_ts_ms":1772992171957}
{"detection":{"confidence":0,"label":"multi","objects":[{"bbox":[0.692383,0.28559,0.016602,0.045139],"confidence":0.845706,"label":"person"},{"bbox":[0.730469,0.166667,0.084961,0.217014],"confidence":0.785414,"label":"rod"},{"bbox":[0.756836,0.199653,0.084961,0.130208],"confidence":0.821786,"label":"rod"},{"bbox":[0.552334,0.782047,0.056816,0.086947],"confidence":0.881474,"label":"rod"},{"bbox":[0.588379,0.736111,0.013672,0.026042],"confidence":0.88836,"label":"person"}],"source_ts_ms":1772992172017},"frame_ts_ms":1772992172555,"frame_valid":true,"gps":{"alt_mm":15048,"cog_cdeg":5760,"fix_type":3,"lat_e7":311234594,"lon_e7":1214730007,"satellites_visible":11,"time_usec":"1772992172032000","vel_cms":548},"latency_ms":523,"wall_ts_ms":1772992172560}
{"detection":{"confidence":0,"label":"multi","objects":[{"bbox":[0.692383,0.28559,0.016602,0.045139],"confidence":0.845706,"label":"person"},{"bbox":[0.730469,0.166667,0.084961,0.217014],"confidence":0.785414,"label":"rod"},{"bbox":[0.756836,0.199653,0.084961,0.130208],"confidence":0.821786,"label":"rod"},{"bbox":[0.552334,0.782047,0.056816,0.086947],"confidence":0.881474,"label":"rod"},{"bbox":[0.588379,0.736111,0.013672,0.026042],"confidence":0.88836,"label":"person"}],"source_ts_ms":1772992173018},"frame_ts_ms":1772992173158,"frame_valid":true,"gps":{"alt_mm":15049,"cog_cdeg":5880,"fix_type":3,"lat_e7":311234552,"lon_e7":1214730023,"satellites_visible":11,"time_usec":"1772992173033000","vel_cms":549},"latency_ms":125,"wall_ts_ms":1772992173163}
